,City,Cloudiness,Country,Date,Humidity,Lat,Lng,Max Temp,Wind Speed
0,butaritari,75,KI,1586040213,78,3.07,172.79,28.45,5.6
1,barentu,5,ER,1586040214,44,15.11,37.59,22.58,1.12
2,sao filipe,53,IN,1586040214,29,20.51,76.21,25.99,1.48
3,cape town,0,CL,1586040214,35,-36.41,-71.9,22.0,4.6
4,marawi,14,PH,1586040214,56,8.0,124.29,24.03,0.94
5,khatanga,94,RU,1586040215,98,71.97,102.5,-4.79,4.88
6,bluff,88,NZ,1586040215,61,-46.6,168.33,18.33,2.24
7,bambous virieux,75,MU,1586040215,78,-20.26,57.41,26.0,3.6
8,vaini,75,TO,1586040215,69,-21.2,-175.2,27.0,4.1
9,barrow,90,US,1586040001,78,71.29,-156.79,-8.0,4.6
10,busselton,100,AU,1586040216,38,-33.65,115.33,16.11,6.07
11,hobart,75,AU,1586040025,70,-42.88,147.33,7.22,2.1
12,tuktoyaktuk,20,CA,1586040216,66,69.45,-133.04,-11.0,5.7
13,mount gambier,79,GB,1586040216,57,53.66,-1.85,10.56,2.6
14,komsomolskiy,87,UZ,1586040217,58,40.43,71.72,13.0,2.1
15,bomi,11,SL,1586040217,86,7.25,-11.53,27.14,2.29
16,ushuaia,40,AR,1586040141,75,-54.8,-68.3,5.0,7.7
17,ocos,5,GT,1586040217,62,14.51,-92.19,32.0,5.1
18,castro,0,BR,1586040217,52,-24.79,-50.01,14.18,0.91
19,puerto ayora,26,ES,1586040218,72,36.59,-6.23,16.0,8.7
20,mataura,83,NZ,1586040218,61,-46.19,168.86,18.33,2.24
21,hilo,20,US,1586040189,65,19.73,-155.09,28.0,5.7
22,rocha,0,UY,1586040218,81,-34.48,-54.33,14.25,1.94
23,saint-joseph,10,RE,1586040219,78,-21.37,55.62,25.0,3.1
24,ribeira grande,94,ES,1586040219,62,42.75,-8.44,17.22,4.6
25,kodiak,90,US,1586040219,27,57.79,-152.41,12.0,3.6
26,novopokrovka,0,UA,1586040219,64,49.84,36.55,4.33,2.7
27,ibra,51,OM,1586040220,36,22.69,58.53,26.69,1.78
28,helong,0,CN,1586040220,55,42.54,129.0,1.3,4.75
29,salalah,40,OM,1586040220,83,17.02,54.09,26.0,1.5
30,new norfolk,75,LR,1586040044,88,6.65,-10.59,27.0,1.41
31,albany,90,US,1586040085,45,42.6,-73.97,17.0,2.6
32,jamestown,90,US,1586039978,62,42.1,-79.24,14.0,2.6
33,katsuura,75,JP,1586040221,81,35.13,140.3,15.0,6.7
34,miri,75,MY,1586040221,100,4.41,114.01,26.0,1.5
35,faya,33,SA,1586040221,59,18.39,42.45,18.0,1.37
36,coihaique,90,CL,1586040221,76,-45.58,-72.07,9.0,2.6
37,torbay,90,CA,1586040222,86,47.67,-52.73,-1.11,5.1
38,kalmunai,65,LK,1586040222,81,7.42,81.82,26.91,2.18
39,whitefish,75,US,1586040222,35,48.41,-114.34,6.11,4.1
40,kokkola,24,FI,1586040223,54,63.84,23.13,0.0,4.1
41,arlit,1,NE,1586040223,10,18.74,7.39,29.39,3.08
42,pleszew,0,PL,1586040223,71,51.9,17.79,2.22,1.57
43,east london,90,IS,1586040223,92,65.0,-15.0,-6.0,10.3
44,punta arenas,0,PH,1586040224,67,8.99,125.34,26.38,1.77
45,port keats,9,CD,1586040128,61,-7.03,29.76,22.44,1.41
46,valparaiso,75,CL,1586040149,82,-33.04,-71.63,16.0,3.1
47,dhidhdhoo,100,MV,1586040133,71,6.88,73.1,28.74,2.42
48,barabai,54,ID,1586040225,74,-2.58,115.38,27.34,0.52
49,rikitea,66,PF,1586040225,81,-23.12,-134.97,24.51,8.31
50,xuchang,99,CN,1586040225,70,34.02,113.82,8.0,1.0
51,nantucket,90,US,1586040165,75,41.28,-70.1,6.11,9.8
52,coahuayana,5,MX,1586040226,35,18.73,-103.68,32.0,5.1
53,luderitz,67,NA,1586040226,100,-26.65,15.16,14.0,4.1
54,yellowknife,20,CA,1586040226,51,62.46,-114.35,-11.0,3.6
55,sur,49,OM,1586040226,39,22.57,59.53,27.77,2.69
56,mar del plata,85,ES,1586040227,34,43.4,-4.01,20.0,4.6
57,ugoofaaru,98,MV,1586040227,64,5.67,73.0,29.17,2.25
58,paamiut,100,GL,1586040227,82,61.99,-49.67,-2.25,10.66
59,domoni,15,KM,1586040227,74,-12.26,44.53,27.83,3.45
60,shache,19,CN,1586040228,28,38.42,77.24,9.36,1.56
61,liwale,4,TZ,1586040228,84,-9.77,37.93,20.08,0.94
62,bredasdorp,9,ZA,1586040228,87,-34.53,20.04,17.22,2.1
63,vanavara,1,RU,1586040228,93,60.34,102.28,-4.68,3.38
64,conway,90,US,1586040228,87,35.09,-92.44,15.56,2.1
65,tiksi,99,RU,1586040229,93,71.69,128.87,-12.3,3.68
66,burnie,98,AU,1586040229,97,-41.07,145.92,5.0,5.81
67,hermanus,34,ZA,1586040229,96,-34.42,19.23,17.22,0.89
68,maceio,96,BR,1586040072,88,-9.67,-35.74,27.0,3.6
69,laguna,90,US,1586040230,87,38.42,-121.42,15.56,4.1
70,fort nelson,13,NL,1586040230,56,52.65,6.39,8.33,1.5
71,tocache,27,PE,1586040230,67,-8.18,-76.51,24.4,0.03
72,floro,100,NO,1586039932,74,61.6,5.03,3.0,9.8
73,nikolskoye,75,RU,1586040231,64,59.7,30.79,1.0,4.0
74,bethel,90,US,1586040231,54,41.37,-73.41,15.56,3.1
75,merauke,3,ID,1586040231,73,-8.47,140.33,28.52,3.63
76,arraial do cabo,0,BR,1586040231,41,-22.84,-46.65,25.0,2.6
77,kahului,20,US,1586040232,55,20.89,-156.47,31.0,6.7
78,nizhniy kuranakh,99,RU,1586040232,56,45.39,39.24,7.78,2.0
79,nizwa,47,OM,1586040232,34,22.93,57.53,26.37,0.72
80,chuy,0,UY,1586040232,75,-33.7,-53.46,17.57,2.55
81,sulphur springs,90,US,1586040232,73,30.24,-93.38,23.0,2.6
82,cabo san lucas,40,BR,1586040233,79,-8.28,-35.03,29.0,2.1
83,borzya,44,RU,1586040233,45,50.38,116.52,2.07,2.67
84,port elizabeth,9,CD,1586040128,61,-7.03,29.76,22.44,1.41
85,tuatapere,99,NZ,1586040233,61,-46.13,167.68,18.33,2.24
86,amapa,99,BR,1586040234,94,1.0,-52.0,23.94,1.36
87,okato,13,NZ,1586040234,57,-39.2,173.88,17.22,1.34
88,mbamba,52,NG,1586040234,37,9.98,13.1,26.89,2.21
89,at-bashi,1,KG,1586040234,33,41.17,75.81,0.19,1.99
90,sukhobezvodnoye,23,RU,1586040235,93,57.05,44.89,-0.98,2.42
91,rio gallegos,75,GR,1586040235,76,38.3,21.78,11.0,2.1
92,leningradskiy,100,RU,1586040235,89,69.38,178.42,-17.19,8.25
93,port alfred,9,CD,1586040128,61,-7.03,29.76,22.44,1.41
94,ixtapa,75,MX,1586040236,74,20.7,-105.2,26.11,6.2
95,robertsport,4,LR,1586040236,87,6.75,-11.37,27.33,3.2
96,esperance,82,AU,1586040236,93,-33.87,121.9,10.0,3.1
97,iqaluit,5,CA,1586040237,70,63.75,-68.51,-17.78,12.9
98,playas,42,EC,1586040237,79,-2.63,-80.38,25.26,4.03
99,hrebinka,4,UA,1586040237,68,50.12,32.44,3.4,2.83
100,wajir,19,KE,1586040237,67,1.75,40.06,26.66,5.98
101,guerrero negro,7,MX,1586040237,22,17.67,-100.0,29.24,1.27
102,pundaguitan,1,PH,1586040238,77,6.37,126.17,27.21,5.44
103,aykhal,90,RU,1586040238,85,66.0,111.5,-11.0,3.0
104,lagoa,19,PT,1586040238,72,39.05,-27.98,14.72,5.51
105,namibe,0,AO,1586040238,69,-15.2,12.15,23.64,3.11
106,moose factory,1,US,1586040238,29,43.66,-110.72,7.0,5.1
107,grand gaube,1,US,1586040239,15,38.88,-109.5,19.44,3.1
108,faanui,2,PF,1586040239,71,-16.48,-151.75,28.65,3.64
109,saint-pierre,3,RE,1586040239,78,-21.34,55.48,25.0,3.1
110,oyo,91,NG,1586040240,81,7.85,3.93,24.72,2.63
111,trim,40,IE,1586040240,66,53.55,-6.79,10.0,7.7
112,pyu,41,MM,1586040240,57,18.48,96.43,22.17,1.21
113,whitehorse,75,CA,1586040127,46,60.72,-135.05,0.56,1.5
114,avarua,100,CK,1586040241,83,-21.21,-159.78,27.0,4.6
115,atuona,31,PF,1586040241,75,-9.8,-139.03,27.92,6.2
116,norman wells,90,US,1586040124,81,35.22,-97.44,7.0,3.6
117,tasiilaq,6,GL,1586040241,31,65.61,-37.64,-8.0,4.6
118,upernavik,4,GL,1586040241,77,72.79,-56.15,-11.78,4.33
119,cidreira,2,BR,1586040242,70,-30.18,-50.21,19.57,3.05
120,narsaq,100,GL,1586040242,36,60.92,-46.05,-2.0,17.5
121,klaksvik,100,FO,1586040242,93,62.23,-6.59,6.0,7.2
122,provideniya,100,RU,1586040242,94,64.38,-173.3,-9.57,8.34
123,fleetwood,81,GB,1586040243,71,53.93,-3.01,10.56,4.6
124,airai,78,TL,1586040243,52,-8.93,125.41,20.8,0.77
125,dabat,58,ET,1586040243,35,12.98,37.77,12.65,0.63
126,sibolga,100,ID,1586040243,85,1.74,98.78,24.5,1.38
127,tilichiki,0,RU,1586040243,87,60.47,166.1,-11.93,2.43
128,ballitoville,93,ZA,1586040244,93,-29.54,31.21,22.22,1.0
129,flin flon,0,FR,1586040244,77,48.5,6.66,11.0,1.5
130,kasongo-lunda,100,CD,1586040244,75,-6.47,16.82,23.3,0.2
131,surgut,40,RU,1586040244,60,61.25,73.42,4.0,6.0
132,hovd,0,MN,1586040245,38,48.01,91.64,1.01,1.92
133,rio brilhante,75,GR,1586040245,76,38.3,21.78,11.0,2.1
134,carnarvon,89,AU,1586040245,83,-24.87,113.63,23.0,5.7
135,kaitangata,67,NZ,1586040246,57,-46.28,169.85,17.43,4.25
136,port-gentil,99,GA,1586040246,79,-0.72,8.78,26.08,2.49
137,srednekolymsk,0,RU,1586040246,89,67.45,153.68,-14.36,1.97
138,portland,90,US,1586040083,46,45.52,-122.68,12.78,5.1
139,grand river south east,1,US,1586040247,15,38.88,-109.5,19.44,3.1
140,kapaa,20,US,1586040247,78,22.08,-159.32,27.22,6.2
141,nanortalik,100,GL,1586040247,87,60.14,-45.24,-2.08,12.97
142,wakkanai,100,JP,1586040248,91,45.41,141.67,1.17,1.11
143,victoria,40,HK,1586040248,93,22.29,114.16,18.33,4.6
144,bathsheba,20,BB,1586040248,69,13.22,-59.52,28.0,4.1
145,dingle,26,PH,1586040249,75,11.0,122.67,27.03,4.69
146,thompson,75,CA,1586040249,73,55.74,-97.86,-6.0,5.7
147,vila franca do campo,75,PT,1586040249,55,42.03,-8.16,17.22,5.7
148,vila velha,75,PT,1586040249,55,42.03,-8.16,17.22,5.7
149,oktyabrskiy,38,RU,1586040250,88,54.48,53.47,0.32,2.74
150,hithadhoo,100,MV,1586040250,71,-0.6,73.08,28.43,1.85
151,montijo,40,PT,1586040250,77,38.71,-8.97,17.22,4.6
152,mahebourg,75,MU,1586040250,78,-20.41,57.7,26.0,3.6
153,deniliquin,22,AU,1586040250,86,-35.53,144.97,11.67,6.26
154,waraseoni,20,IN,1586040251,54,21.75,80.03,24.23,1.86
155,nagato,40,JP,1586040251,57,34.38,131.2,10.0,1.5
156,cap-aux-meules,90,CA,1586039994,74,47.38,-61.86,-1.0,4.1
157,ponta do sol,20,PT,1586040251,74,38.73,-28.27,12.8,4.84
158,fort saint john,13,NL,1586040230,56,52.65,6.39,8.33,1.5
159,jalu,3,LY,1586040252,69,29.03,21.55,16.39,6.69
160,pavlivka,0,UA,1586040252,67,49.44,28.46,2.88,3.03
161,bairiki,40,KI,1586040252,66,1.33,172.98,31.0,4.1
162,oranjestad,40,AW,1586040011,83,12.52,-70.03,28.0,9.8
163,vagur,100,FO,1586040253,85,61.47,-6.81,7.68,10.1
164,tambo,88,PE,1586040253,28,-14.8,-73.92,5.97,1.14
165,saskylakh,3,RU,1586040253,91,71.92,114.08,-15.18,4.48
166,garden city,21,DE,1586040253,65,53.69,12.05,5.56,1.5
167,verkh-usugli,19,RU,1586040254,55,52.7,115.17,1.91,5.26
168,ayan,22,RU,1586040254,88,56.45,138.17,-5.55,2.08
169,kropotkin,100,RU,1586040254,51,45.44,40.58,8.51,2.15
170,morondava,17,MG,1586040255,76,-20.28,44.28,24.58,2.44
171,varhaug,75,NO,1586040255,93,58.61,5.65,6.67,4.6
172,shimoda,16,JP,1586040255,64,34.67,138.95,14.44,1.34
173,praia da vitoria,20,CV,1586040256,73,14.92,-23.51,23.0,7.2
174,suntar,57,RU,1586040256,92,62.14,117.63,-7.05,5.46
175,haines junction,1,US,1586040256,33,59.23,-135.44,7.0,3.1
176,lorengau,40,PG,1586040256,76,-2.02,147.27,28.34,2.71
177,imbituba,2,BR,1586040256,64,-28.24,-48.67,22.0,2.6
178,pochinki,42,RU,1586040257,81,54.7,44.87,1.39,2.98
179,panaba,2,MX,1586040257,48,21.28,-88.27,30.16,5.08
180,ebejico,40,CO,1586040257,42,6.33,-75.77,29.0,5.1
181,hammond,90,US,1586039979,80,41.58,-87.5,9.0,3.6
182,korla,47,CN,1586040258,33,41.76,86.15,9.38,0.4
183,deputatskiy,100,RU,1586040258,87,69.3,139.9,-15.03,1.38
184,valley station,75,US,1586040259,44,45.13,-116.13,4.0,3.6
185,parabel,1,RU,1586040259,96,58.7,81.48,-3.17,3.99
186,san patricio,0,ML,1586040260,13,13.3,-4.9,29.07,1.01
187,azad shahr,90,AZ,1586040260,93,40.7,46.51,9.0,1.0
188,sarkand,1,KZ,1586040261,36,45.41,79.92,9.21,2.16
189,shihezi,95,CN,1586040261,35,44.3,86.03,10.22,1.37
190,sassandra,4,CI,1586040261,82,4.95,-6.08,27.43,2.62
191,quelimane,75,MZ,1586040261,88,-17.88,36.89,23.0,1.82
192,mehamn,100,NO,1586040262,93,71.04,27.85,-2.58,10.1
193,alofi,100,NU,1586040262,78,-19.06,-169.92,28.0,3.1
194,sao jose da coroa grande,53,IN,1586040262,29,20.51,76.21,25.99,1.48
195,clyde river,90,US,1586040071,66,41.3,-82.98,20.0,1.37
196,khandyga,100,RU,1586040262,93,62.67,135.6,-7.18,4.41
197,pacific grove,90,US,1586040263,75,38.48,-90.74,7.78,3.1
198,qaanaaq,100,GL,1586040263,75,77.48,-69.36,-12.12,2.66
199,pontiac,90,US,1586040098,76,42.64,-83.29,15.0,5.1
200,coquimbo,75,CL,1586040263,82,-29.95,-71.34,16.0,6.2
201,homer,1,US,1586040264,76,59.64,-151.55,9.0,3.6
202,kita,0,ML,1586040264,14,13.03,-9.49,28.83,0.32
203,eyl,88,SO,1586040265,74,7.98,49.82,26.72,5.35
204,bubaque,0,GW,1586040266,70,11.28,-15.83,26.27,4.42
205,mys shmidta,90,RU,1586040273,95,62.06,48.62,-1.61,4.29
206,havoysund,40,NO,1586040273,92,71.0,24.66,-5.0,7.2
207,lata,40,PT,1586040273,72,40.16,-8.33,16.67,5.7
208,avera,1,US,1586040274,27,33.19,-82.53,26.0,3.6
209,thomasville,1,US,1586040274,25,35.88,-80.08,24.0,2.61
210,mlimba,43,TZ,1586040274,71,-8.8,35.82,22.6,0.97
211,maniitsoq,0,GL,1586040274,80,65.42,-52.9,-4.15,11.85
212,gore,85,NZ,1586039984,64,-46.1,168.94,18.33,2.24
213,beloha,100,MG,1586040276,77,-25.17,45.05,20.44,7.39
214,naze,40,JP,1586040276,63,28.37,129.48,19.0,4.1
215,karratha,41,AU,1586040276,63,-20.74,116.85,28.11,1.72
216,chokurdakh,0,RU,1586040277,90,70.63,147.92,-17.52,4.23
217,birin,0,NP,1586040277,22,26.89,88.07,11.53,2.47
218,nieuwpoort,9,BE,1586040277,70,51.12,2.77,10.0,2.6
219,boffa,16,GN,1586040277,85,10.17,-14.03,25.95,1.37
220,pasni,0,PK,1586040278,52,25.26,63.47,25.44,3.07
221,san rafael,0,ML,1586039994,13,13.3,-4.9,29.07,1.01
222,waynesville,75,US,1586040278,35,35.49,-82.99,23.0,2.1
223,turtas,100,RU,1586040279,90,58.94,69.13,2.63,4.62
224,touros,40,BR,1586040279,88,-5.2,-35.46,27.0,2.6
225,gap,4,FR,1586040279,62,44.67,6.0,7.22,1.36
226,lewistown,40,US,1586040279,58,40.6,-77.57,14.44,0.65
227,lake city,1,US,1586040280,75,42.33,-88.0,11.67,4.1
228,tiarei,35,PF,1586040280,66,-17.53,-149.33,32.0,6.2
229,kedgwick,100,CA,1586040245,90,47.64,-67.34,-0.59,0.35
230,kansanshi,6,ZM,1586040280,63,-12.1,26.43,14.5,0.91
231,ossora,5,RU,1586040280,88,59.24,163.07,-8.78,3.25
232,omboue,100,GA,1586040281,88,-1.57,9.26,25.04,2.0
233,mayumba,100,GA,1586040281,86,-3.43,10.66,26.0,2.55
234,ambilobe,25,MG,1586040281,89,-13.2,49.05,23.15,1.34
235,zhigansk,93,RU,1586040282,95,66.77,123.37,-10.57,7.37
236,fortuna,40,US,1586040282,76,40.6,-124.16,13.33,5.1
237,kalmar,40,SE,1586040282,69,56.66,16.36,3.0,2.6
238,calama,61,CL,1586040282,31,-22.47,-68.93,24.0,10.8
239,bar harbor,0,UA,1586040282,67,49.08,27.68,3.04,3.09
240,gigmoto,8,PH,1586040283,76,13.78,124.39,27.21,3.66
241,atar,0,MR,1586040283,23,20.52,-13.05,22.45,1.7
242,pochutla,40,MX,1586040283,74,15.74,-96.47,30.56,5.7
243,ishinomaki,75,JP,1586040283,60,38.42,141.3,8.0,5.1
244,jardim,0,BR,1586040284,53,-21.48,-56.14,22.76,1.37
245,alihe,19,CN,1586040284,52,50.57,123.72,2.39,1.38
246,margate,0,GB,1586040284,87,51.38,1.39,11.11,4.6
247,ollon,8,CH,1586040284,52,46.3,6.99,8.33,1.0
248,ilulissat,0,GL,1586040284,43,69.22,-51.1,-10.0,10.3
249,san cristobal,0,ML,1586040260,13,13.3,-4.9,29.07,1.01
250,grand centre,1,US,1586040285,15,38.88,-109.5,19.44,3.1
251,beyneu,0,KZ,1586040285,60,45.32,55.2,6.62,2.82
252,yulara,49,AU,1586040286,44,-25.24,130.99,15.0,4.6
253,souillac,75,MU,1586040286,78,-20.52,57.52,26.0,3.6
254,maningrida,97,AU,1586040286,78,-12.07,134.27,28.15,2.27
255,pangody,94,RU,1586040286,93,65.85,74.49,1.37,8.93
256,hutchinson,1,US,1586040286,43,38.06,-97.93,11.11,4.6
257,ilebo,9,CD,1586040287,82,-4.32,20.58,22.36,0.55
258,zyryanka,43,RU,1586040287,92,65.75,150.85,-13.26,4.71
259,kribi,97,CM,1586040287,85,2.95,9.92,24.58,1.18
260,berdigestyakh,66,RU,1586040287,92,62.1,126.7,-7.83,5.99
261,longyearbyen,20,SJ,1586039668,77,78.22,15.64,-17.0,4.1
262,tateyama,75,JP,1586040288,81,34.98,139.87,15.0,6.7
263,santa maria,13,PH,1586040288,57,17.49,120.43,29.17,1.65
264,whitianga,32,NZ,1586040288,55,-36.83,175.7,21.67,2.68
265,istok,75,XK,1586040288,65,42.78,20.49,8.0,6.7
266,marzuq,1,YE,1586040289,28,14.4,46.47,21.16,1.89
267,durant,90,US,1586040289,93,33.99,-96.37,13.33,3.6
268,bengkulu,100,ID,1586040289,83,-3.8,102.27,25.21,1.34
269,lamesa,90,US,1586040289,71,32.74,-101.95,13.89,4.1
270,saldanha,64,ZA,1586040290,87,-33.01,17.94,16.0,1.5
271,campana,0,AR,1586040290,64,-34.17,-58.96,23.89,2.1
272,itarema,100,BR,1586040290,87,-2.92,-39.92,26.0,2.24
273,arrecife,67,ES,1586040290,77,28.96,-13.55,21.0,1.0
274,outjo,74,NA,1586040291,68,-20.12,16.15,20.0,1.0
275,lasa,5,IT,1586040291,55,46.62,10.7,5.0,1.5
276,kavieng,53,PG,1586040291,76,-2.57,150.8,27.7,1.89
277,siniscola,0,IT,1586040291,73,40.57,9.69,10.37,4.96
278,cayenne,75,GF,1586040291,78,4.93,-52.33,28.0,3.6
279,lindi,0,TZ,1586040292,87,-10.0,39.72,24.48,2.19
280,fairbanks,90,US,1586040031,90,64.84,-147.72,1.67,2.6
281,nyirgyulaj,0,HU,1586040292,34,47.89,22.1,10.0,8.7
282,turbat,4,PK,1586040292,37,26.0,63.04,25.35,1.25
283,turukhansk,100,RU,1586040292,91,65.82,87.98,0.75,8.47
284,kargil,4,IN,1586040293,31,34.57,76.1,-9.7,1.12
285,port hardy,9,CD,1586040293,61,-7.03,29.76,22.44,1.41
286,kahone,0,SN,1586040293,54,14.15,-16.03,27.0,3.1
287,kulachi,46,PK,1586040293,52,31.93,70.46,20.25,2.13
288,lompoc,0,US,1586040294,59,34.64,-120.46,18.33,7.2
289,yaan,97,NG,1586040294,73,7.38,8.57,26.37,4.75
290,sergeyevka,100,KZ,1586040294,92,53.88,67.42,4.7,4.13
291,urumqi,89,CN,1586040294,20,43.8,87.6,11.0,3.0
292,ahipara,38,NZ,1586040295,59,-35.17,173.17,19.95,6.11
293,vostok,100,RU,1586040295,84,46.49,135.88,-3.04,2.7
294,caravelas,100,BR,1586040295,82,-17.71,-39.25,26.25,6.42
295,vao,30,NC,1586040295,80,-22.67,167.48,25.37,9.93
296,semey,0,KZ,1586040295,81,50.41,80.23,1.67,2.23
297,hamilton,90,US,1586040296,37,39.18,-84.53,22.0,1.39
298,atambua,30,ID,1586040296,70,-9.11,124.89,26.42,0.24
299,repelon,31,CO,1586040296,79,10.49,-75.13,29.0,6.2
300,yamethin,0,MM,1586040296,36,20.43,96.15,23.88,1.95
301,sidney,40,AU,1586040186,48,-33.87,151.21,19.44,4.6
302,bauta,40,CU,1586040297,54,22.98,-82.55,29.0,4.1
303,kamenskiy,83,RU,1586040297,79,50.89,45.49,5.02,3.13
304,palmer,75,US,1586040297,50,42.16,-72.33,14.0,1.39
305,podporozhye,79,RU,1586040297,95,60.91,34.17,-1.2,2.94
306,phan thiet,8,TH,1586040298,78,19.55,99.74,22.78,0.46
307,ust-barguzin,28,RU,1586040298,83,53.45,108.98,-1.56,2.39
308,saint-philippe,19,RE,1586040298,78,-21.36,55.77,25.0,2.6
309,majene,72,ID,1586040298,78,-3.54,118.97,27.64,1.06
310,geraldton,75,AU,1586040024,77,-28.77,114.6,21.0,4.6
311,esmeraldas,27,BR,1586040293,73,-19.76,-44.31,25.0,1.0
312,roald,100,NO,1586040299,64,62.58,6.13,3.33,4.1
313,havre-saint-pierre,90,CA,1586040299,86,50.23,-63.6,-1.0,2.6
314,ancud,20,CL,1586040299,66,-41.87,-73.82,12.0,3.1
315,nouakchott,0,MR,1586040025,83,18.09,-15.98,21.0,7.7
316,wuwei,79,CN,1586040300,26,37.93,102.64,7.76,1.2
317,awjilah,8,LY,1586040300,70,29.11,21.29,16.15,6.05
318,sovetskiy,100,RU,1586040300,94,61.36,63.58,0.76,2.15
319,dzhebariki-khaya,100,RU,1586040300,91,62.22,135.8,-6.26,4.32
320,eureka,40,US,1586040258,76,40.8,-124.16,13.33,5.1
321,harer,21,ET,1586040301,36,9.31,42.13,17.29,3.84
322,rosarito,75,MX,1586040301,68,32.33,-117.03,19.44,6.2
323,mokhotlong,55,LS,1586040301,41,-29.29,29.07,7.06,1.01
324,galbshtadt,49,RU,1586040302,95,53.23,78.98,-2.39,4.84
325,grindavik,90,IS,1586040302,100,63.84,-22.43,-3.0,14.4
326,qui nhon,53,BR,1586040302,74,-10.97,-37.6,30.0,6.2
327,mozarlandia,75,BR,1586040302,73,-14.74,-50.57,25.87,1.5
328,dikson,91,RU,1586040302,97,73.51,80.55,-9.6,3.46
329,egvekinot,100,RU,1586040303,88,66.32,-179.17,-17.12,8.17
330,petropavlovsk-kamchatskiy,1,RU,1586040303,58,53.05,158.65,-2.0,3.0
331,chancay,6,PE,1586040303,73,-11.57,-77.27,24.0,6.7
332,pokhara,0,NP,1586040069,23,28.23,83.98,13.88,2.8
333,college,90,US,1586040304,86,64.86,-147.8,2.0,1.57
334,crab hill,90,US,1586040304,71,37.27,-76.49,13.33,2.6
335,shelburne,75,CA,1586040063,66,44.08,-80.2,13.89,3.6
336,bam,18,IR,1586040305,23,29.11,58.36,20.32,1.77
337,pangai,100,TO,1586040305,79,-19.8,-174.35,26.0,6.8
338,olafsvik,98,IS,1586040305,92,64.89,-23.71,-4.22,22.68
339,oistins,20,BB,1586040279,69,13.07,-59.53,28.0,4.1
340,byron bay,1,US,1586040115,45,44.03,-92.65,6.11,1.5
341,cadereyta,90,MX,1586040306,64,25.58,-99.98,24.0,2.1
342,molos,90,GR,1586040306,87,38.82,22.65,8.0,7.7
343,tongliao,0,CN,1586040306,41,43.61,122.27,4.27,3.13
344,emerald,0,AU,1586040306,56,-23.53,148.17,23.33,7.7
345,constitucion,54,CL,1586040307,71,-35.33,-72.42,13.26,4.79
346,atherton,77,GB,1586040173,57,53.52,-2.49,10.56,2.6
347,mount isa,79,GB,1586040307,57,53.66,-1.85,10.56,2.6
348,andilamena,20,MG,1586040307,72,-17.02,48.58,15.25,1.34
349,huarmey,6,PE,1586040308,73,-10.07,-78.15,23.56,2.74
350,zhezkazgan,68,KZ,1586040308,72,47.8,67.71,6.7,3.87
351,tiznit,4,MA,1586040308,55,29.58,-9.5,15.23,0.9
352,sena madureira,20,TH,1586040309,83,14.33,100.4,31.11,3.1
353,bowen,75,AU,1586040309,88,-20.02,148.23,27.78,0.77
354,lebu,0,CL,1586040310,73,-37.62,-73.65,13.08,7.38
355,poum,67,NC,1586040310,79,-20.23,164.02,27.12,9.65
356,vardo,100,NO,1586040310,94,70.37,31.11,-1.43,6.9
357,kyra,50,RU,1586040310,44,49.58,111.98,5.04,2.35
358,ouadda,31,CF,1586040311,47,8.08,22.4,23.08,1.35
359,talara,53,PE,1586040112,72,-4.58,-81.27,25.05,2.16
360,marystown,99,CA,1586040184,96,47.17,-55.15,-0.53,4.89
361,tsiroanomandidy,94,MG,1586040311,72,-18.77,46.03,19.11,1.55
362,dunedin,75,NZ,1586040304,79,-45.87,170.5,15.0,10.73
363,buin,97,CL,1586040312,40,-33.73,-70.75,23.0,5.1
364,newtonmore,100,GB,1586040312,70,57.07,-4.12,7.22,1.0
365,kaduy,3,RU,1586040313,91,59.2,37.15,-1.29,2.54
366,bitung,20,ID,1586040313,94,1.45,125.18,23.0,1.0
367,birao,96,CF,1586040313,16,10.28,22.79,26.39,0.96
368,jinhua,83,CN,1586040314,78,29.11,119.65,11.44,1.56
369,lunino,50,RU,1586040314,30,53.59,45.23,7.22,2.7
370,kununurra,52,AU,1586040314,94,-15.77,128.73,27.0,1.5
371,halifax,90,CA,1586040220,86,44.65,-63.57,2.78,5.1
372,georgetown,20,MY,1586040161,83,5.41,100.34,27.0,1.5
373,xichang,98,CN,1586040315,41,27.9,102.26,10.64,1.02
374,krutinka,80,RU,1586040315,86,56.01,71.51,0.95,7.77
375,taylorville,90,US,1586040315,75,39.55,-89.29,9.0,3.6
376,mugumu,93,TZ,1586040316,62,-1.85,34.7,15.73,1.41
377,sligo,70,IE,1586040316,85,54.27,-8.47,8.89,3.58
378,waipawa,42,NZ,1586040316,55,-41.41,175.52,18.0,4.1
379,alice springs,90,US,1586040316,93,27.75,-98.07,16.67,3.6
380,consett,82,GB,1586040316,70,54.85,-1.83,9.44,3.1
381,sabang,19,ID,1586040317,74,5.89,95.32,28.41,5.45
382,kungurtug,100,RU,1586040317,52,50.6,97.52,-1.14,1.41
383,rawatsar,50,IN,1586040317,31,29.28,74.38,22.87,1.53
384,palana,100,RU,1586040318,94,59.12,159.97,-9.3,9.02
385,alexandria,45,EG,1586040318,56,31.22,29.96,22.0,4.1
386,kyrylivka,99,UA,1586040120,67,46.38,35.37,8.14,4.48
387,senekal,10,ZA,1586040319,41,-28.32,27.62,12.17,1.94
388,shirokiy,0,RU,1586040319,76,49.76,129.52,1.11,2.2
389,dalbandin,3,PK,1586040319,20,28.89,64.41,20.48,1.3
390,hasaki,75,JP,1586040320,81,35.73,140.83,12.22,3.1
391,cessnock,0,AU,1586040320,59,-32.83,151.35,18.89,8.2
392,palafrugell,40,ES,1586040320,81,41.92,3.16,13.89,0.5
393,sedro-woolley,75,US,1586040321,50,48.5,-122.24,12.0,3.05
394,amga,100,RU,1586040321,96,60.9,131.96,-2.15,2.9
395,dong hoi,90,CM,1586040321,81,4.89,12.01,20.14,2.6
396,ruidoso,1,US,1586040322,12,33.33,-105.67,25.0,7.7
397,gambo,34,CF,1586040322,71,4.65,22.26,23.21,0.89
398,darhan,100,MN,1586040322,53,49.49,105.92,4.12,6.81
399,port lincoln,9,CD,1586040293,61,-7.03,29.76,22.44,1.41
400,port blair,9,CD,1586040323,61,-7.03,29.76,22.44,1.41
401,ilfracombe,0,GB,1586040323,75,51.21,-4.11,10.56,4.6
402,svidnik,0,SK,1586040324,38,49.31,21.57,2.22,1.71
403,kloulklubed,75,PW,1586040324,88,7.04,134.26,26.0,3.1
404,tieling,0,CN,1586040324,48,42.29,123.84,3.68,0.44
405,adiake,20,CI,1586040325,78,5.29,-3.3,26.0,1.5
406,matara,82,LK,1586040325,90,5.95,80.54,24.78,2.01
407,honiara,40,SB,1586040326,74,-9.43,159.95,30.0,4.1
408,fiche,37,ET,1586040326,29,9.8,38.73,11.52,1.75
409,sao desiderio,53,IN,1586040214,29,20.51,76.21,25.99,1.48
410,boguchany,0,RU,1586040326,93,58.38,97.45,-1.6,0.26
411,pangnirtung,3,CA,1586040327,74,66.15,-65.71,-11.79,3.1
412,wukari,69,NG,1586040327,68,7.85,9.78,27.8,5.57
413,mogadishu,29,SO,1586040327,75,2.04,45.34,28.09,5.04
414,athabasca,99,CA,1586040327,89,54.72,-113.29,-5.41,2.48
415,auki,67,SB,1586040328,70,-8.77,160.7,29.12,8.3
416,joensuu,78,FI,1586040328,92,62.6,29.76,-3.33,3.6
417,ondjiva,0,AO,1586040328,60,-17.07,15.73,18.83,2.42
418,mayo,90,US,1586040328,71,38.89,-76.51,15.0,2.6
419,fereydunshahr,22,IR,1586040329,33,32.94,50.12,1.5,2.3
420,palmares do sul,100,BR,1586040329,84,-8.68,-35.59,25.31,1.39
421,acari,63,PE,1586040329,64,-15.43,-74.62,22.79,1.17
422,sitka,20,US,1586040329,64,57.05,-135.33,4.0,3.6
423,kerema,35,PG,1586040330,61,-7.96,145.78,29.66,0.67
424,mahajanga,40,MG,1586040330,83,-15.72,46.32,25.0,1.5
425,thinadhoo,99,MV,1586040330,75,0.53,72.93,28.33,4.18
426,husavik,90,IS,1586040330,73,66.04,-17.34,-6.0,20.1
427,bachaquero,40,VE,1586040331,74,9.97,-71.15,28.81,2.1
428,mandalgovi,0,MN,1586040331,28,45.76,106.27,5.43,1.8
429,insar,35,RU,1586040331,79,53.87,44.37,1.84,3.1
430,kidal,0,ML,1586040331,11,18.44,1.41,28.07,4.14
431,nikolayevsk-na-amure,0,RU,1586040332,92,53.14,140.73,-1.84,1.41
432,agua dulce,15,IT,1586040332,61,45.74,8.32,12.78,2.6
433,kundiawa,34,PG,1586040332,36,-6.02,144.97,24.15,1.69
434,bayburt,50,TR,1586040332,43,40.26,40.23,1.66,1.27
435,chicama,31,PE,1586040333,65,-7.84,-79.15,24.73,2.7
436,baykit,51,RU,1586040333,94,61.67,96.37,-3.79,2.78
437,belaya gora,8,UA,1586040333,65,49.03,25.77,3.86,2.4
438,novomykolayivka,41,UA,1586040334,60,47.98,35.91,5.78,4.1
439,ambovombe,91,MG,1586040334,81,-25.17,46.08,20.42,6.46
440,kandrian,81,PG,1586040334,73,-6.22,149.55,28.85,2.2
441,sorsk,61,RU,1586040335,81,54.0,90.25,-3.08,2.73
442,kruisfontein,23,ZA,1586040312,62,-34.0,24.73,18.24,3.49
443,urambo,29,TZ,1586040335,71,-5.07,32.05,17.99,1.14
444,hualmay,4,PE,1586040335,76,-11.1,-77.61,22.18,2.0
445,sunndalsora,100,NO,1586040336,80,62.68,8.55,-1.0,5.7
446,falmouth,0,GB,1586040336,87,50.15,-5.07,10.56,6.2
447,kupang,20,ID,1586040336,100,-10.17,123.58,24.0,1.0
448,tura,0,IN,1586040337,30,25.52,90.22,20.15,1.32
449,cherskiy,84,RU,1586040337,89,68.75,161.3,-19.06,2.62
450,chernyshevskiy,61,RU,1586040337,94,63.01,112.47,-5.64,5.43
451,nortelandia,72,BR,1586040337,83,-14.45,-56.8,24.9,0.76
452,hervey bay,90,US,1586040338,100,33.5,-93.78,15.0,3.6
453,nassau,90,US,1586040338,66,40.75,-73.58,16.0,4.1
454,bolobo,66,CD,1586040338,81,-2.17,16.23,23.92,1.41
455,shebunino,100,RU,1586040338,92,46.43,141.86,1.62,4.12
456,meridian,1,US,1586040240,26,43.61,-116.39,15.56,5.1
457,atmakur,37,IN,1586040339,57,15.88,78.58,22.68,1.61
458,batagay,99,RU,1586040339,93,67.63,134.63,-9.2,2.75
459,binzhou,59,CN,1586040339,23,37.37,118.02,7.22,4.37
460,zlobin,2,HR,1586040340,40,45.29,14.65,12.22,0.45
461,abu zabad,19,IN,1586040340,17,24.6,72.7,18.9,1.64
462,umba,16,RU,1586040341,87,66.69,34.34,-6.51,4.24
463,polyarnyy,99,RU,1586040341,57,69.2,33.45,-6.0,4.0
464,quzhou,97,CN,1586040341,77,28.96,118.87,11.82,3.11
465,rio grande,75,GR,1586040235,76,38.3,21.78,11.0,2.1
466,jiazi,77,CN,1586040341,62,22.88,116.07,18.62,7.15
467,onega,20,RU,1586040342,95,63.91,38.14,-4.35,2.12
468,talnakh,75,RU,1586040342,92,69.49,88.4,0.0,13.0
469,ramsar,89,IR,1586040342,76,36.92,50.64,11.64,4.41
470,kremsmunster,1,AT,1586040343,70,48.05,14.13,7.22,3.6
471,gallup,1,US,1586040343,16,35.53,-108.74,18.0,6.2
472,phrae,13,TH,1586040343,56,18.08,100.0,28.89,0.49
473,yvoir,0,BE,1586040343,71,50.33,4.88,9.0,1.0
474,bilasipara,0,IN,1586040344,29,26.23,90.23,19.23,2.75
475,vangaindrano,95,MG,1586040344,86,-23.35,47.6,20.78,1.22
476,codrington,97,AU,1586040344,74,-38.27,141.97,15.53,10.99
477,nome,90,US,1586040345,96,64.5,-165.41,1.0,7.7
478,adrar,0,MR,1586040345,16,20.5,-10.07,24.78,4.6
479,arica,90,CL,1586040345,68,-18.48,-70.3,22.0,3.1
480,arraias,8,BR,1586040345,72,-12.93,-46.94,22.52,0.4
481,jabinyanah,3,TN,1586040346,72,35.03,10.91,15.0,2.1
482,saint-augustin,100,CA,1586040346,98,51.23,-58.65,-2.96,1.25
483,griffith,90,US,1586040346,80,41.53,-87.42,9.0,3.6
484,mecca,0,SA,1586040347,43,21.43,39.83,25.03,0.2
485,grand-santi,100,GF,1586040347,93,4.25,-54.38,24.62,1.46
486,beringovskiy,100,RU,1586040347,93,63.05,179.32,-14.25,11.29
487,inhambane,63,MZ,1586040347,75,-23.86,35.38,22.45,2.67
488,aktau,68,KZ,1586040348,93,43.65,51.2,5.0,3.0
489,port-cartier,75,CA,1586040348,80,50.03,-66.87,1.0,3.1
490,andenes,83,NO,1586040348,85,69.31,16.12,-4.44,3.6
491,ust-kulom,42,RU,1586040348,97,61.69,53.69,-2.72,2.29
492,saronno,2,IT,1586040319,61,45.63,9.03,12.78,2.6
493,takoradi,98,GH,1586040349,83,4.88,-1.76,27.26,3.47
494,nicholasville,1,US,1586040349,37,37.88,-84.57,22.78,2.38
495,puno,89,PE,1586040349,27,-15.83,-70.03,8.17,2.48
496,bighapur,0,IN,1586040350,56,26.35,80.68,20.0,2.76
497,gat,100,IL,1586040350,24,31.61,34.76,26.11,3.6
498,tandil,6,AR,1586040350,72,-37.32,-59.13,18.33,3.13
499,erzin,75,TR,1586040351,76,36.96,36.2,16.11,2.6
500,gayeri,33,BF,1586040351,12,12.65,0.49,30.14,2.94
501,charters towers,75,US,1586040351,37,38.57,-83.43,23.0,0.76
502,pokrovsk,55,UA,1586040351,59,48.28,37.18,5.35,3.93
503,ladario,0,BR,1586040352,66,-19.0,-57.6,24.76,0.54
504,joshimath,1,IN,1586040352,24,30.57,79.57,4.72,3.29
505,hami,45,CN,1586040352,27,42.8,93.45,9.44,0.51
506,hirara,75,JP,1586040352,88,24.8,125.28,20.0,5.7
507,luba,20,GQ,1586040353,100,3.46,8.55,24.0,2.1
508,onguday,57,RU,1586040353,53,50.75,86.15,3.36,0.24
509,kalabo,66,ZM,1586040353,62,-14.97,22.68,18.97,1.57
510,omsukchan,98,RU,1586040353,84,62.53,155.8,-11.0,3.22
511,muravlenko,100,RU,1586040354,94,63.79,74.52,0.56,8.19
512,baker city,75,US,1586040354,60,30.59,-91.17,24.0,3.6
513,itoman,75,JP,1586040354,72,26.12,127.67,19.0,4.6
514,wanxian,100,CN,1586040354,74,30.8,108.39,12.44,0.68
515,roma,90,US,1586040355,62,43.21,-75.46,13.0,2.6
516,singarayakonda,42,IN,1586040355,95,15.25,80.03,23.58,2.55
517,oussouye,0,SN,1586040356,69,12.48,-16.55,26.0,2.1
518,ulaanbaatar,18,MN,1586040352,72,47.91,106.88,-9.0,1.0
519,marsa matruh,20,MT,1586040356,87,35.88,14.5,13.33,3.1
520,pandan,8,PH,1586040356,77,14.05,124.17,26.98,4.04
521,visnes,100,NO,1586040357,87,59.36,5.22,7.0,5.7
522,acarau,100,BR,1586040357,89,-2.89,-40.12,25.69,2.06
523,japura,98,ID,1586040357,96,-0.32,102.35,24.15,1.02
524,sao joao da barra,53,IN,1586040358,29,20.51,76.21,25.99,1.48
525,bukama,5,CD,1586040358,73,-9.2,25.85,19.69,0.47
526,losone,40,CH,1586040358,61,46.17,8.76,11.67,1.0
527,brae,100,GB,1586040359,93,60.4,-1.35,8.0,5.1
528,taoudenni,0,ML,1586040359,13,22.68,-3.98,27.1,3.37
529,ormara,0,PK,1586040359,70,25.21,64.64,24.22,3.13
530,yining,100,CN,1586040360,71,29.04,114.56,12.96,1.37
531,kenora,40,CA,1586040340,79,49.82,-94.43,-4.0,3.6
532,havelock,1,US,1586040206,59,34.88,-76.9,20.0,6.7
533,riyadh,0,SA,1586039651,27,24.69,46.72,23.0,2.1
534,turinsk,100,RU,1586040361,96,58.05,63.7,2.57,1.42
535,itajuba,1,BR,1586040355,66,-22.43,-45.45,16.11,1.58
536,winnemucca,75,US,1586040361,22,40.97,-117.74,14.0,9.3
537,elbistan,86,TR,1586040361,44,38.21,37.2,7.3,1.02
538,lypnyazhka,0,UA,1586040092,62,48.45,31.08,4.32,2.9
539,punta cardon,0,PH,1586040362,67,8.99,125.34,26.38,1.77
540,daru,0,PG,1586040362,67,-9.08,143.21,29.17,3.09
541,petrozavodsk,80,RU,1586040239,86,61.78,34.35,-2.0,3.0
542,asau,86,RO,1586040362,56,46.43,26.4,6.11,1.5
543,san pedro,0,ML,1586040268,13,13.3,-4.9,29.07,1.01
544,pozo colorado,20,CU,1586040363,48,22.45,-80.18,28.0,7.2
545,duluth,75,US,1586040105,38,46.78,-92.11,6.11,2.6
546,zlitan,7,LY,1586040363,71,32.47,14.57,14.55,7.02
547,puerto escondido,26,ES,1586040299,72,36.59,-6.23,16.0,8.7
548,xuddur,53,SO,1586040364,66,4.12,43.89,24.71,6.13
549,lazaro cardenas,84,DO,1586040364,75,19.46,-71.33,26.11,0.45
550,tessalit,4,ML,1586040365,12,20.2,1.01,25.49,2.89
